$GPRMC,044329.40,A,2236.34593961,N,12017.80444020,E,0.022,15.216,240823,4.2936,W,D*22$GPHDT,264.707,T*35$GPRMC,044329.60,A,2236.34593969,N,12017.80444022,E,0.021,15.113,240823,4.2936,W,D*2F$GPHDT,264.723,T*33$GPRMC,044329.80,A,2236.34593977,N,12017.80444025,E,0.032,0.266,240823,4.2936,W,D*1E$GPHDT,264.818,T*34$GPRMC,044330.00,A,2236.34593986,N,12017.80444027,E,0.009,0.000,240823,4.2936,W,D*18$GPGGA,044330.00,2236.34593986,N,12017.80444027,E,2,06,1.3,6.264,M,20.367,M,7.0,0137*47$GPHDT,264.739,T*38$GPRMC,044330.20,A,2236.34593994,N,12017.80444030,E,0.009,0.000,240823,4.2936,W,D*1F$GPHDT,264.704,T*36$GPRMC,044330.40,A,2236.34594003,N,12017.80444032,E,0.016,163.430,240823,4.2936,W,D*16$GPHDT,264.802,T*3F$GPRMC,044330.60,A,2236.34594011,N,12017.80444035,E,0.031,180.959,240823,4.2936,W,D*1A$GPHDT,264.931,T*3E$GPRMC,044330.80,A,2236.34594019,N,12017.80444037,E,0.016,188.557,240823,4.2936,W,D*11$GPHDT,264.757,T*30$GPRMC,044331.00,A,2236.34594028,N,12017.80444040,E,0.018,184.500,240823,4.2936,W,D*1A$GPGGA,044331.00,2236.34594028,N,12017.80444040,E,2,06,1.3,6.266,M,20.367,M,7.0,0137*4F$GPHDT,264.677,T*33$GPRMC,044331.20,A,2236.34594036,N,12017.80444042,E,0.022,193.587,240823,4.2936,W,D*15$GPHDT,265.123,T*34$GPRMC,044331.40,A,2236.34594044,N,12017.80444045,E,0.014,184.189,240823,4.2936,W,D*18$GPHDT,265.036,T*31$GPRMC,044331.60,A,2236.34594052,N,12017.80444047,E,0.008,0.000,240823,4.2936,W,D*1F$GPHDT,265.039,T*3E$GPRMC,044331.80,A,2236.34594060,N,12017.80444050,E,0.003,0.000,240823,4.2936,W,D*1D$GPHDT,264.919,T*34$GPRMC,044332.00,A,2236.34594068,N,12017.80444052,E,0.013,85.149,240823,4.2936,W,D*2C$GPGGA,044332.00,2236.34594068,N,12017.80444052,E,2,06,1.3,6.268,M,20.367,M,7.0,0137*45$GPHDT,265.196,T*3A$GPRMC,044332.20,A,2236.34594076,N,12017.80444055,E,0.025,65.905,240823,4.2936,W,D*2D$GPHDT,264.918,T*35$GPRMC,044332.40,A,2236.34594084,N,12017.80444057,E,0.022,47.210,240823,4.2936,W,D*2C$GPHDT,264.742,T*34$GPRMC,044332.60,A,2236.34594092,N,12017.80444060,E,0.022,55.972,240823,4.2936,W,D*21$GPHDT,264.675,T*31$GPRMC,044332.80,A,2236.34594100,N,12017.80444063,E,0.008,0.000,240823,4.2936,W,D*12$GPHDT,264.818,T*34$GPRMC,044333.00,A,2236.34594108,N,12017.80444066,E,0.002,0.000,240823,4.2936,W,D*1C$GPGGA,044333.00,2236.34594108,N,12017.80444066,E,2,06,1.3,6.269,M,20.367,M,4.0,0137*46$GPHDT,264.699,T*33$GPRMC,044333.20,A,2236.34594116,N,12017.80444069,E,0.007,0.000,240823,4.2936,W,D*1B$GPHDT,264.616,T*34$GPRMC,044333.40,A,2236.34594125,N,12017.80444072,E,0.009,0.000,240823,4.2936,W,D*19$GPHDT,264.942,T*3A$GPRMC,044333.60,A,2236.34594133,N,12017.80444075,E,0.015,207.955,240823,4.2936,W,D*1A$GPHDT,264.847,T*3E$GPRMC,044333.80,A,2236.34594141,N,12017.80444078,E,0.015,177.019,240823,4.2936,W,D*19$GPHDT,264.837,T*39$GPRMC,044334.00,A,2236.34594149,N,12017.80444081,E,0.023,208.110,240823,4.2936,W,D*1E$GPGGA,044334.00,2236.34594149,N,12017.80444081,E,2,06,1.3,6.271,M,20.367,M,5.0,0137*45$GPHDT,264.794,T*3F$GPRMC,044334.20,A,2236.34594157,N,12017.80444084,E,0.029,183.719,240823,4.2936,W,D*13$GPHDT,264.701,T*33$GPRMC,044334.40,A,2236.34594165,N,12017.80444087,E,0.037,197.743,240823,4.2936,W,D*12$GPHDT,264.618,T*3A$GPRMC,044334.60,A,2236.34594173,N,12017.80444090,E,0.035,186.095,240823,4.2936,W,D*1F$GPHDT,264.609,T*3A$GPRMC,044334.80,A,2236.34594180,N,12017.80444093,E,0.031,201.335,240823,4.2936,W,D*1F$GPHDT,264.995,T*30$GPRMC,044335.00,A,2236.34594188,N,12017.80444096,E,0.012,186.077,240823,4.2936,W,D*13$GPGGA,044335.00,2236.34594188,N,12017.80444096,E,2,06,1.3,6.273,M,20.367,M,6.0,0137*4E$GPHDT,264.861,T*3A$GPRMC,044335.20,A,2236.34594196,N,12017.80444099,E,0.003,0.000,240823,4.2936,W,D*1E$GPHDT,265.080,T*3C$GPRMC,044335.40,A,2236.34594203,N,12017.80444102,E,0.017,16.411,240823,4.2936,W,D*22$GPHDT,265.008,T*3C$GPRMC,044335.60,A,2236.34594211,N,12017.80444105,E,0.015,334.414,240823,4.2936,W,D*10$GPHDT,264.921,T*3F$GPRMC,044335.80,A,2236.34594218,N,12017.80444108,E,0.019,338.503,240823,4.2936,W,D*1D$GPHDT,264.899,T*3D$GPRMC,044336.00,A,2236.34594226,N,12017.80444110,E,0.021,325.014,240823,4.2936,W,D*16$GPGGA,044336.00,2236.34594226,N,12017.80444110,E,2,06,1.3,6.274,M,20.367,M,7.0,0137*43$GPHDT,265.044,T*34$GPRMC,044336.20,A,2236.34594234,N,12017.80444113,E,0.020,326.998,240823,4.2936,W,D*1B$GPHDT,265.079,T*3A$GPRMC,044336.40,A,2236.34594242,N,12017.80444116,E,0.020,4.748,240823,4.2936,W,D*19$GPHDT,264.779,T*3C$GPRMC,044336.60,A,2236.34594250,N,12017.80444119,E,0.013,343.591,240823,4.2936,W,D*11$GPHDT,265.040,T*30$GPRMC,044336.80,A,2236.34594258,N,12017.80444122,E,0.007,0.000,240823,4.2936,W,D*13$GPHDT,264.964,T*3E$GPRMC,044337.00,A,2236.34594266,N,12017.80444125,E,0.007,0.000,240823,4.2936,W,D*10$GPGGA,044337.00,2236.34594266,N,12017.80444125,E,2,06,1.3,6.276,M,20.367,M,7.0,0137*42$GPHDT,264.967,T*3D$GPRMC,044337.20,A,2236.34594275,N,12017.80444128,E,0.007,0.000,240823,4.2936,W,D*1D$GPHDT,264.827,T*38$GPRMC,044337.40,A,2236.34594283,N,12017.80444130,E,0.026,180.390,240823,4.2936,W,D*1B$GPHDT,264.894,T*30$GPRMC,044337.60,A,2236.34594291,N,12017.80444133,E,0.030,180.084,240823,4.2936,W,D*18$GPHDT,264.887,T*32$GPRMC,044337.80,A,2236.34594299,N,12017.80444136,E,0.034,175.299,240823,4.2936,W,D*1B$GPHDT,264.760,T*34$GPRMC,044338.00,A,2236.34594306,N,12017.80444139,E,0.033,188.926,240823,4.2936,W,D*1E$GPGGA,044338.00,2236.34594306,N,12017.80444139,E,2,06,1.3,6.278,M,20.367,M,7.0,0137*49$GPHDT,264.667,T*32$GPRMC,044338.20,A,2236.34594314,N,12017.80444142,E,0.034,199.252,240823,4.2936,W,D*1C$GPHDT,264.872,T*38$GPRMC,044338.40,A,2236.34594321,N,12017.80444145,E,0.027,197.428,240823,4.2936,W,D*1C$GPHDT,264.860,T*3B$GPRMC,044338.60,A,2236.34594328,N,12017.80444148,E,0.014,218.360,240823,4.2936,W,D*15$GPHDT,264.813,T*3F$GPRMC,044338.80,A,2236.34594336,N,12017.80444151,E,0.013,355.638,240823,4.2936,W,D*1B$GPHDT,264.746,T*30$GPRMC,044339.00,A,2236.34594343,N,12017.80444154,E,0.041,22.966,240823,4.2936,W,D*25$GPGGA,044339.00,2236.34594343,N,12017.80444154,E,2,06,1.3,6.279,M,20.367,M,4.0,0137*40$GPHDT,264.761,T*35$GPRMC,044339.20,A,2236.34594351,N,12017.80444157,E,0.029,26.635,240823,4.2936,W,D*24$GPHDT,264.913,T*3E$GPRMC,044339.40,A,2236.34594358,N,12017.80444160,E,0.026,4.287,240823,4.2936,W,D*1D$GPHDT,264.820,T*3F$GPRMC,044339.60,A,2236.34594366,N,12017.80444163,E,0.031,21.783,240823,4.2936,W,D*21$GPHDT,264.550,T*35$GPRMC,044339.80,A,2236.34594374,N,12017.80444166,E,0.024,344.383,240823,4.2936,W,D*19$GPHDT,264.901,T*3D$GPRMC,044340.00,A,2236.34594382,N,12017.80444169,E,0.024,330.560,240823,4.2936,W,D*11$GPGGA,044340.00,2236.34594382,N,12017.80444169,E,2,06,1.3,6.281,M,20.367,M,5.0,0137*4B$GPHDT,264.748,T*3E$GPRMC,044340.20,A,2236.34594390,N,12017.80444172,E,0.025,344.085,240823,4.2936,W,D*16$GPHDT,264.642,T*35$GPRMC,044340.40,A,2236.34594399,N,12017.80444175,E,0.014,314.426,240823,4.2936,W,D*14$GPHDT,264.682,T*39$GPRMC,044340.60,A,2236.34594407,N,12017.80444178,E,0.011,225.728,240823,4.2936,W,D*10$GPHDT,264.763,T*37$GPRMC,044340.80,A,2236.34594416,N,12017.80444181,E,0.032,183.540,240823,4.2936,W,D*1A$GPHDT,264.574,T*33$GPRMC,044341.00,A,2236.34594424,N,12017.80444184,E,0.032,192.618,240823,4.2936,W,D*19$GPGGA,044341.00,2236.34594424,N,12017.80444184,E,2,06,1.3,6.282,M,20.367,M,6.0,0137*42$GPHDT,264.554,T*31$GPRMC,044341.20,A,2236.34594432,N,12017.80444187,E,0.045,174.866,240823,4.2936,W,D*10$GPHDT,264.601,T*32$GPRMC,044341.40,A,2236.34594440,N,12017.80444190,E,0.037,183.270,240823,4.2936,W,D*15$GPHDT,264.585,T*3D$GPRMC,044341.60,A,2236.34594448,N,12017.80444193,E,0.018,168.423,240823,4.2936,W,D*14$GPHDT,264.498,T*30$GPRMC,044341.80,A,2236.34594455,N,12017.80444197,E,0.009,0.000,240823,4.2936,W,D*18$GPHDT,264.451,T*35$GPRMC,044342.00,A,2236.34594463,N,12017.80444200,E,0.013,186.964,240823,4.2936,W,D*14$GPGGA,044342.00,2236.34594463,N,12017.80444200,E,2,06,1.3,6.284,M,20.367,M,7.0,0137*4A$GPHDT,264.761,T*35$GPRMC,044342.20,A,2236.34594471,N,12017.80444203,E,0.004,0.000,240823,4.2936,W,D*14$GPHDT,264.550,T*35$GPRMC,044342.40,A,2236.34594478,N,12017.80444206,E,0.012,321.640,240823,4.2936,W,D*1B$GPHDT,264.867,T*3C$GPRMC,044342.60,A,2236.34594486,N,12017.80444209,E,0.014,284.911,240823,4.2936,W,D*14$GPHDT,264.750,T*37$GPRMC,044342.80,A,2236.34594494,N,12017.80444212,E,0.017,343.929,240823,4.2936,W,D*11$GPHDT,264.706,T*34$GPRMC,044343.00,A,2236.34594502,N,12017.80444215,E,0.031,336.166,240823,4.2936,W,D*14$GPGGA,044343.00,2236.34594502,N,12017.80444215,E,2,06,1.3,6.286,M,20.367,M,7.0,0137*4B$GPHDT,264.843,T*3A$GPRMC,044343.20,A,2236.34594510,N,12017.80444218,E,0.012,291.876,240823,4.2936,W,D*1D$GPHDT,264.814,T*38$GPRMC,044343.40,A,2236.34594518,N,12017.80444221,E,0.013,261.404,240823,4.2936,W,D*1E$GPHDT,264.646,T*31$GPRMC,044343.60,A,2236.34594526,N,12017.80444224,E,0.007,0.000,240823,4.2936,W,D*14$GPHDT,264.802,T*3F$GPRMC,044343.80,A,2236.34594534,N,12017.80444227,E,0.006,0.000,240823,4.2936,W,D*1B$GPHDT,264.842,T*3B$GPRMC,044344.00,A,2236.34594542,N,12017.80444229,E,0.001,0.000,240823,4.2936,W,D*1C$GPGGA,044344.00,2236.34594542,N,12017.80444229,E,2,06,1.3,6.287,M,20.367,M,7.0,0137*46$GPHDT,264.853,T*3B$GPRMC,044344.20,A,2236.34594550,N,12017.80444232,E,0.007,0.000,240823,4.2936,W,D*11$GPHDT,264.615,T*37$GPRMC,044344.40,A,2236.34594558,N,12017.80444235,E,0.009,0.000,240823,4.2936,W,D*16$GPHDT,264.652,T*34$GPRMC,044344.60,A,2236.34594566,N,12017.80444237,E,0.007,0.000,240823,4.2936,W,D*15$GPHDT,264.763,T*37$GPRMC,044344.80,A,2236.34594574,N,12017.80444240,E,0.021,336.233,240823,4.2936,W,D*18$GPHDT,264.672,T*36$GPRMC,044345.00,A,2236.34594582,N,12017.80444243,E,0.006,0.000,240823,4.2936,W,D*1A$GPGGA,044345.00,2236.34594582,N,12017.80444243,E,2,06,1.3,6.289,M,20.367,M,4.0,0137*4A$GPHDT,264.558,T*3D$GPRMC,044345.20,A,2236.34594591,N,12017.80444245,E,0.006,0.000,240823,4.2936,W,D*1C$GPHDT,265.134,T*32$GPRMC,044345.40,A,2236.34594599,N,12017.80444248,E,0.004,0.000,240823,4.2936,W,D*1D$GPHDT,264.880,T*35$GPRMC,044345.60,A,2236.34594607,N,12017.80444251,E,0.015,180.387,240823,4.2936,W,D*16$GPHDT,264.950,T*39$GPRMC,044345.80,A,2236.34594615,N,12017.80444253,E,0.017,224.686,240823,4.2936,W,D*12$GPHDT,264.923,T*3D$GPRMC,044346.00,A,2236.34594622,N,12017.80444254,E,0.020,210.161,240823,4.2936,W,D*17$GPGGA,044346.00,2236.34594622,N,12017.80444254,E,2,07,1.2,6.291,M,20.367,M,5.0,0137*4E$GPHDT,264.889,T*3C$GPRMC,044346.20,A,2236.34594628,N,12017.80444252,E,0.019,205.753,240823,4.2936,W,D*10$GPHDT,264.769,T*3D$GPRMC,044346.40,A,2236.34594633,N,12017.80444250,E,0.016,224.481,240823,4.2936,W,D*1E$GPHDT,264.682,T*39$GPRMC,044346.60,A,2236.34594638,N,12017.80444249,E,0.011,177.354,240823,4.2936,W,D*12$GPHDT,264.679,T*3D$GPRMC,044346.80,A,2236.34594644,N,12017.80444247,E,0.010,100.756,240823,4.2936,W,D*1E$GPHDT,264.692,T*38$GPRMC,044347.00,A,2236.34594649,N,12017.80444245,E,0.007,0.000,240823,4.2936,W,D*1B$GPGGA,044347.00,2236.34594649,N,12017.80444245,E,2,07,1.2,6.293,M,20.367,M,6.0,0137*43$GPHDT,264.992,T*37$GPRMC,044347.20,A,2236.34594655,N,12017.80444244,E,0.014,59.164,240823,4.2936,W,D*28$GPHDT,264.548,T*3C$GPRMC,044347.40,A,2236.34594660,N,12017.80444242,E,0.016,21.182,240823,4.2936,W,D*2B$GPHDT,264.794,T*3F$GPRMC,044347.60,A,2236.34594666,N,12017.80444241,E,0.018,14.392,240823,4.2936,W,D*27$GPHDT,264.565,T*33$GPRMC,044347.80,A,2236.34594671,N,12017.80444239,E,0.009,0.000,240823,4.2936,W,D*1D$GPHDT,264.779,T*3C$GPRMC,044348.00,A,2236.34594677,N,12017.80444238,E,0.015,352.983,240823,4.2936,W,D*16$GPGGA,044348.00,2236.34594677,N,12017.80444238,E,2,07,1.2,6.295,M,20.367,M,7.0,0137*4C$GPHDT,264.744,T*32$GPRMC,044348.20,A,2236.34594683,N,12017.80444237,E,0.007,0.000,240823,4.2936,W,D*15$GPHDT,264.610,T*32$GPRMC,044348.40,A,2236.34594689,N,12017.80444235,E,0.011,314.001,240823,4.2936,W,D*1B$GPHDT,264.760,T*34$GPRMC,044348.60,A,2236.34594695,N,12017.80444234,E,0.004,0.000,240823,4.2936,W,D*16$GPHDT,264.569,T*3F$GPRMC,044348.80,A,2236.34594701,N,12017.80444233,E,0.009,0.000,240823,4.2936,W,D*1E$GPHDT,264.691,T*3B$GPRMC,044349.00,A,2236.34594707,N,12017.80444232,E,0.019,185.653,240823,4.2936,W,D*1D$GPGGA,044349.00,2236.34594707,N,12017.80444232,E,2,07,1.2,6.298,M,20.367,M,7.0,0137*4C$GPHDT,264.793,T*38$GPRMC,044349.20,A,2236.34594713,N,12017.80444231,E,0.027,192.474,240823,4.2936,W,D*15$GPHDT,264.812,T*3E$GPRMC,044349.40,A,2236.34594719,N,12017.80444229,E,0.022,166.653,240823,4.2936,W,D*19$GPHDT,264.606,T*35$GPRMC,044349.60,A,2236.34594724,N,12017.80444228,E,0.016,208.317,240823,4.2936,W,D*1D$GPHDT,264.668,T*3D$GPRMC,044349.80,A,2236.34594730,N,12017.80444227,E,0.022,171.270,240823,4.2936,W,D*13$GPHDT,264.528,T*3A$GPRMC,044350.00,A,2236.34594736,N,12017.80444226,E,0.022,232.498,240823,4.2936,W,D*10$GPGGA,044350.00,2236.34594736,N,12017.80444226,E,2,07,1.2,6.300,M,20.367,M,7.0,0137*43$GPHDT,264.811,T*3D$GPRMC,044350.20,A,2236.34594741,N,12017.80444224,E,0.014,238.654,240823,4.2936,W,D*1D$GPHDT,264.573,T*34$GPRMC,044350.40,A,2236.34594747,N,12017.80444223,E,0.009,0.000,240823,4.2936,W,D*18$GPHDT,264.500,T*30$GPRMC,044350.60,A,2236.34594752,N,12017.80444222,E,0.007,0.000,240823,4.2936,W,D*11$GPHDT,264.642,T*35$GPRMC,044350.80,A,2236.34594758,N,12017.80444220,E,0.011,343.618,240823,4.2936,W,D*1B$GPHDT,264.544,T*30$GPRMC,044351.00,A,2236.34594764,N,12017.80444219,E,0.011,23.667,240823,4.2936,W,D*2A$GPGGA,044351.00,2236.34594764,N,12017.80444219,E,2,07,1.2,6.302,M,20.367,M,4.0,0137*48$GPHDT,264.611,T*33$GPRMC,044351.20,A,2236.34594770,N,12017.80444217,E,0.008,0.000,240823,4.2936,W,D*1D$GPHDT,264.768,T*3C$GPRMC,044351.40,A,2236.34594775,N,12017.80444216,E,0.013,268.530,240823,4.2936,W,D*1F$GPHDT,264.887,T*32$GPRMC,044351.60,A,2236.34594781,N,12017.80444214,E,0.009,0.000,240823,4.2936,W,D*15$GPHDT,264.895,T*3102002800000000000a1e0200000000003c0301010901000000280000010000410038006401640049012800640100005a0132010000000101e600000109000141013201000000014b013201000000014b013201000000015a0132010000000001a400000105000000d7030000d60b13020000000005000000853600004f074f0700000000000000000000000000000000000000001f0000003f0000007d000000fa00000077010000f4010000ee020000e8030000dc050000d0070000b80b0000a00f000070170000401f0000e02e0000803e0000c05d0000007d000080bb000000fa000005000000dd0300006309630901000000c8000000bc0200000807080701000000
$GPRMC,044351.80,A,2236.34594787,N,12017.80444213,E,0.015,267.993,240823,4.2936,W,D*17$GPHDT,264.757,T*30$GPRMC,044352.00,A,2236.34594793,N,12017.80444211,E,0.010,0.000,240823,4.2936,W,D*1E$GPGGA,044352.00,2236.34594793,N,12017.80444211,E,2,07,1.2,6.305,M,20.367,M,5.0,0137*4D$GPHDT,264.723,T*3302002800000000000a1e0200000000003c0301010901000000280000010000410038006401640049012800640100005a0132010000000101e600000109000141013201000000014b013201000000014b013201000000015a0132010000000001a400000105000000d7030000d60b13020000000005000000853600004f074f0700000000000000000000000000000000000000001f0000003f0000007d000000fa00000077010000f4010000ee020000e8030000dc050000d0070000b80b0000a00f000070170000401f0000e02e0000803e0000c05d0000007d000080bb000000fa000005000000dd0300006309630901000000c8000000bc0200000807080701000000
$GPRMC,044352.20,A,2236.34594799,N,12017.80444209,E,0.010,280.957,240823,4.2936,W,D*1E$GPHDT,264.889,T*3C$GPRMC,044352.40,A,2236.34594805,N,12017.80444207,E,0.018,322.641,240823,4.2936,W,D*15$GPHDT,264.935,T*3A$GPRMC,044352.60,A,2236.34594811,N,12017.80444206,E,0.007,0.000,240823,4.2936,W,D*1D$GPHDT,264.756,T*31$GPRMC,044352.80,A,2236.34594817,N,12017.80444204,E,0.010,14.796,240823,4.2936,W,D*2C$GPHDT,264.869,T*32$GPRMC,044353.00,A,2236.34594823,N,12017.80444202,E,0.014,221.998,240823,4.2936,W,D*14$GPGGA,044353.00,2236.34594823,N,12017.80444202,E,2,07,1.2,6.307,M,20.367,M,6.0,0137*4B$GPHDT,264.727,T*3702002800000000000a1e0200000000003c0301010901000000280000010000410038006401640049012800640100005a0132010000000101e600000109000141013201000000014b013201000000014b013201000000015a0132010000000001a400000105000000d7030000d60b13020000000005000000853600004f074f0700000000000000000000000000000000000000001f0000003f0000007d000000fa00000077010000f4010000ee020000e8030000dc050000d0070000b80b0000a00f000070170000401f0000e02e0000803e0000c05d0000007d000080bb000000fa000005000000dd0300006309630901000000c8000000bc0200000807080701000000
$GPRMC,044353.20,A,2236.34594830,N,12017.80444200,E,0.009,0.000,240823,4.2936,W,D*13$GPHDT,264.804,T*39$GPRMC,044353.40,A,2236.34594836,N,12017.80444198,E,0.017,256.916,240823,4.2936,W,D*11$GPHDT,264.839,T*37$GPRMC,044353.60,A,2236.34594842,N,12017.80444196,E,0.016,234.714,240823,4.2936,W,D*17$GPHDT,264.847,T*3E$GPRMC,044353.80,A,2236.34594848,N,12017.80444194,E,0.011,206.084,240823,4.2936,W,D*19$GPHDT,264.799,T*32$GPRMC,044354.00,A,2236.34594854,N,12017.80444192,E,0.012,149.544,240823,4.2936,W,D*1F$GPGGA,044354.00,2236.34594854,N,12017.80444192,E,2,07,1.2,6.309,M,20.367,M,7.0,0137*49$GPHDT,264.711,T*3202002800000000000a1e0200000000003c0301010901000000280000010000410038006401640049012800640100005a0132010000000101e600000109000141013201000000014b013201000000014b013201000000015a0132010000000001a400000105000000d7030000d60b13020000000005000000853600004f074f0700000000000000000000000000000000000000001f0000003f0000007d000000fa00000077010000f4010000ee020000e8030000dc050000d0070000b80b0000a00f000070170000401f0000e02e0000803e0000c05d0000007d000080bb000000fa000005000000dd0300006309630901000000c8000000bc0200000807080701000000
$GPRMC,044354.20,A,2236.34594860,N,12017.80444190,E,0.015,161.356,240823,4.2936,W,D*10$GPHDT,264.659,T*3F$GPRMC,044354.40,A,2236.34594866,N,12017.80444189,E,0.031,158.076,240823,4.2936,W,D*15$GPHDT,264.529,T*3B$GPRMC,044354.60,A,2236.34594872,N,12017.80444187,E,0.020,176.206,240823,4.2936,W,D*15$GPHDT,264.712,T*31$GPRMC,044354.80,A,2236.34594878,N,12017.80444185,E,0.025,200.797,240823,4.2936,W,D*19$GPHDT,264.608,T*3B$GPRMC,044355.00,A,2236.34594883,N,12017.80444183,E,0.016,216.964,240823,4.2936,W,D*17$GPGGA,044355.00,2236.34594883,N,12017.80444183,E,2,07,1.2,6.312,M,20.367,M,7.0,0137*48$GPHDT,264.609,T*3A02002800000000000a1e0200000000003c0301010901000000280000010000410038006401640049012800640100005a0132010000000101e600000109000141013201000000014b013201000000014b013201000000015a0132010000000001a400000105000000d7030000d60b13020000000005000000853600004f074f0700000000000000000000000000000000000000001f0000003f0000007d000000fa00000077010000f4010000ee020000e8030000dc050000d0070000b80b0000a00f000070170000401f0000e02e0000803e0000c05d0000007d000080bb000000fa000005000000dd0300006309630901000000c8000000bc0200000807080701000000
$GPRMC,044355.20,A,2236.34594889,N,12017.80444182,E,0.004,0.000,240823,4.2936,W,D*13$GPHDT,264.421,T*32$GPRMC,044355.40,A,2236.34594895,N,12017.80444180,E,0.025,337.792,240823,4.2936,W,D*12$GPHDT,264.491,T*39$GPRMC,044355.60,A,2236.34594900,N,12017.80444178,E,0.022,344.930,240823,4.2936,W,D*1F$GPHDT,264.443,T*36$GPRMC,044355.80,A,2236.34594906,N,12017.80444176,E,0.021,340.375,240823,4.2936,W,D*15$GPHDT,264.448,T*3D$GPRMC,044356.00,A,2236.34594912,N,12017.80444174,E,0.034,353.118,240823,4.2936,W,D*16$GPGGA,044356.00,2236.34594912,N,12017.80444174,E,2,07,1.2,6.314,M,20.367,M,7.0,0137*4C$GPHDT,264.626,T*3702002800000000000a1e0200000000003c0301010901000000280000010000410038006401640049012800640100005a0132010000000101e600000109000141013201000000014b013201000000014b013201000000015a0132010000000001a400000105000000d7030000d60b13020000000005000000853600004f074f0700000000000000000000000000000000000000001f0000003f0000007d000000fa00000077010000f4010000ee020000e8030000dc050000d0070000b80b0000a00f000070170000401f0000e02e0000803e0000c05d0000007d000080bb000000fa000005000000dd0300006309630901000000c8000000bc0200000807080701000000
$GPRMC,044356.20,A,2236.34594918,N,12017.80444172,E,0.026,1.645,240823,4.2936,W,D*10$GPHDT,264.514,T*35$GPRMC,044356.40,A,2236.34594925,N,12017.80444170,E,0.004,0.000,240823,4.2936,W,D*1C$GPHDT,264.609,T*3A$GPRMC,044356.60,A,2236.34594931,N,12017.80444169,E,0.012,314.004,240823,4.2936,W,D*16$GPHDT,264.655,T*33$GPRMC,044356.80,A,2236.34594937,N,12017.80444167,E,0.013,168.786,240823,4.2936,W,D*15$GPHDT,264.636,T*36$GPRMC,044357.00,A,2236.34594944,N,12017.80444165,E,0.018,194.123,240823,4.2936,W,D*1B$GPGGA,044357.00,2236.34594944,N,12017.80444165,E,2,07,1.2,6.316,M,20.367,M,4.0,0137*4F$GPHDT,264.607,T*3402002800000000000a1e0200000000003c0301010901000000280000010000410038006401640049012800640100005a0132010000000101e600000109000141013201000000014b013201000000014b013201000000015a0132010000000001a400000105000000d7030000d60b13020000000005000000853600004f074f0700000000000000000000000000000000000000001f0000003f0000007d000000fa00000077010000f4010000ee020000e8030000dc050000d0070000b80b0000a00f000070170000401f0000e02e0000803e0000c05d0000007d000080bb000000fa000005000000dd0300006309630901000000c8000000bc0200000807080701000000
$GPRMC,044357.20,A,2236.34594950,N,12017.80444163,E,0.025,174.651,240823,4.2936,W,D*18$GPHDT,264.576,T*31$GPRMC,044357.40,A,2236.34594956,N,12017.80444161,E,0.021,190.201,240823,4.2936,W,D*15$GPHDT,264.594,T*3D$GPRMC,044357.60,A,2236.34594962,N,12017.80444160,E,0.015,196.762,240823,4.2936,W,D*10$GPHDT,264.533,T*30$GPRMC,044357.80,A,2236.34594968,N,12017.80444158,E,0.018,172.287,240823,4.2936,W,D*16$GPHDT,264.532,T*31$GPRMC,044358.00,A,2236.34594974,N,12017.80444156,E,0.012,207.260,240823,4.2936,W,D*10$GPGGA,044358.00,2236.34594974,N,12017.80444156,E,2,07,1.2,6.318,M,20.367,M,5.0,0137*4C$GPHDT,264.574,T*3302002800000000000a1e0200000000003c0301010901000000280000010000410038006401640049012800640100005a0132010000000101e600000109000141013201000000014b013201000000014b013201000000015a0132010000000001a400000105000000d7030000d60b13020000000005000000853600004f074f0700000000000000000000000000000000000000001f0000003f0000007d000000fa00000077010000f4010000ee020000e8030000dc050000d0070000b80b0000a00f000070170000401f0000e02e0000803e0000c05d0000007d000080bb000000fa000005000000dd0300006309630901000000c8000000bc0200000807080701000000
$GPRMC,044358.20,A,2236.34594979,N,12017.80444154,E,0.010,248.007,240823,4.2936,W,D*17$GPHDT,264.404,T*35$GPRMC,044358.40,A,2236.34594985,N,12017.80444153,E,0.012,278.642,240823,4.2936,W,D*13$GPHDT,264.430,T*32$GPRMC,044358.60,A,2236.34594991,N,12017.80444151,E,0.006,0.000,240823,4.2936,W,D*1E$GPHDT,264.638,T*38$GPRMC,044358.80,A,2236.34594997,N,12017.80444149,E,0.013,319.029,240823,4.2936,W,D*1B$GPHDT,264.600,T*33$GPRMC,044359.00,A,2236.34595003,N,12017.80444147,E,0.006,0.000,240823,4.2936,W,D*1D$GPGGA,044359.00,2236.34595003,N,12017.80444147,E,2,07,1.2,6.321,M,20.367,M,6.0,0137*4C$GPHDT,264.472,T*3402002800000000000a1e0200000000003c0301010901000000280000010000410038006401640049012800640100005a0132010000000101e600000109000141013201000000014b013201000000014b013201000000015a0132010000000001a400000105000000d7030000d60b13020000000005000000853600004f074f0700000000000000000000000000000000000000001f0000003f0000007d000000fa00000077010000f4010000ee020000e8030000dc050000d0070000b80b0000a00f000070170000401f0000e02e0000803e0000c05d0000007d000080bb000000fa000005000000dd0300006309630901000000c8000000bc0200000807080701000000
$GPRMC,044359.20,A,2236.34595009,N,12017.80444145,E,0.009,0.000,240823,4.2936,W,D*18$GPHDT,264.683,T*38$GPRMC,044359.40,A,2236.34595015,N,12017.80444143,E,0.004,0.000,240823,4.2936,W,D*18$GPHDT,264.593,T*3A$GPRMC,044359.60,A,2236.34595021,N,12017.80444141,E,0.013,87.471,240823,4.2936,W,D*24$GPHDT,264.503,T*33$GPRMC,044359.80,A,2236.34595027,N,12017.80444139,E,0.007,0.000,240823,4.2936,W,D*1B$GPHDT,264.605,T*36$GPRMC,044400.00,A,2236.34595033,N,12017.80444137,E,0.004,0.000,240823,4.2936,W,D*10$GPGGA,044400.00,2236.34595033,N,12017.80444137,E,2,07,1.2,6.323,M,20.367,M,7.0,0137*40$GPHDT,264.628,T*3902002800000000000a1e0200000000003c0301010901000000280000010000410038006401640049012800640100005a0132010000000101e600000109000141013201000000014b013201000000014b013201000000015a0132010000000001a400000105000000d7030000d60b13020000000005000000853600004f074f0700000000000000000000000000000000000000001f0000003f0000007d000000fa00000077010000f4010000ee020000e8030000dc050000d0070000b80b0000a00f000070170000401f0000e02e0000803e0000c05d0000007d000080bb000000fa000005000000dd0300006309630901000000c8000000bc0200000807080701000000
$GPRMC,044400.20,A,2236.34595040,N,12017.80444135,E,0.012,16.635,240823,4.2936,W,D*24$GPHDT,264.619,T*3B$GPRMC,044400.40,A,2236.34595046,N,12017.80444133,E,0.019,352.410,240823,4.2936,W,D*1F$GPHDT,264.452,T*36$GPRMC,044400.60,A,2236.34595052,N,12017.80444131,E,0.015,55.895,240823,4.2936,W,D*23$GPHDT,264.426,T*35$GPRMC,044400.80,A,2236.34595058,N,12017.80444129,E,0.009,0.000,240823,4.2936,W,D*17$GPHDT,264.535,T*36$GPRMC,044401.00,A,2236.34595065,N,12017.80444127,E,0.004,0.000,240823,4.2936,W,D*13$GPGGA,044401.00,2236.34595065,N,12017.80444127,E,2,07,1.2,6.325,M,20.367,M,7.0,0137*45$GPHDT,264.478,T*3E02002800000000000a1e0200000000003c0301010901000000280000010000410038006401640049012800640100005a0132010000000101e600000109000141013201000000014b013201000000014b013201000000015a0132010000000001a400000105000000d7030000d60b13020000000005000000853600004f074f0700000000000000000000000000000000000000001f0000003f0000007d000000fa00000077010000f4010000ee020000e8030000dc050000d0070000b80b0000a00f000070170000401f0000e02e0000803e0000c05d0000007d000080bb000000fa000005000000dd0300006309630901000000c8000000bc0200000807080701000000
$GPRMC,044401.20,A,2236.34595071,N,12017.80444126,E,0.009,0.000,240823,4.2936,W,D*18$GPHDT,264.504,T*34$GPRMC,044401.40,A,2236.34595077,N,12017.80444124,E,0.015,202.985,240823,4.2936,W,D*13$GPHDT,264.712,T*31$GPRMC,044401.60,A,2236.34595084,N,12017.80444122,E,0.007,0.000,240823,4.2936,W,D*1C$GPHDT,264.409,T*38$GPRMC,044401.80,A,2236.34595090,N,12017.80444121,E,0.018,160.746,240823,4.2936,W,D*18$GPHDT,264.685,T*3E$GPRMC,044402.00,A,2236.34595096,N,12017.80444119,E,0.019,198.697,240823,4.2936,W,D*15$GPGGA,044402.00,2236.34595096,N,12017.80444119,E,2,07,1.2,6.327,M,20.367,M,7.0,0137*45$GPHDT,264.545,T*3102002800000000000a1e0200000000003c0301010901000000280000010000410038006401640049012800640100005a0132010000000101e600000109000141013201000000014b013201000000014b013201000000015a0132010000000001a400000105000000d7030000d60b13020000000005000000853600004f074f0700000000000000000000000000000000000000001f0000003f0000007d000000fa00000077010000f4010000ee020000e8030000dc050000d0070000b80b0000a00f000070170000401f0000e02e0000803e0000c05d0000007d000080bb000000fa000005000000dd0300006309630901000000c8000000bc0200000807080701000000
$GPRMC,044402.20,A,2236.34595102,N,12017.80444117,E,0.019,155.206,240823,4.2936,W,D*18$GPHDT,264.615,T*37$GPRMC,044402.40,A,2236.34595108,N,12017.80444116,E,0.015,161.730,240823,4.2936,W,D*1E$GPHDT,264.670,T*34$GPRMC,044402.60,A,2236.34595114,N,12017.80444115,E,0.014,121.656,240823,4.2936,W,D*16$GPHDT,264.545,T*31$GPRMC,044402.80,A,2236.34595120,N,12017.80444113,E,0.004,0.000,240823,4.2936,W,D*1F$GPHDT,264.527,T*35$GPRMC,044403.00,A,2236.34595126,N,12017.80444112,E,0.021,36.535,240823,4.2936,W,D*20$GPGGA,044403.00,2236.34595126,N,12017.80444112,E,2,07,1.2,6.330,M,20.367,M,4.0,0137*40$GPHDT,264.415,T*3502002800000000000a1e0200000000003c0301010901000000280000010000410038006401640049012800640100005a0132010000000101e600000109000141013201000000014b013201000000014b013201000000015a0132010000000001a400000105000000d7030000d60b13020000000005000000853600004f074f0700000000000000000000000000000000000000001f0000003f0000007d000000fa00000077010000f4010000ee020000e8030000dc050000d0070000b80b0000a00f000070170000401f0000e02e0000803e0000c05d0000007d000080bb000000fa000005000000dd0300006309630901000000c8000000bc0200000807080701000000
$GPRMC,044403.20,A,2236.34595132,N,12017.80444111,E,0.021,45.378,240823,4.2936,W,D*2F$GPHDT,264.638,T*38$GPRMC,044403.40,A,2236.34595139,N,12017.80444110,E,0.008,0.000,240823,4.2936,W,D*15$GPHDT,264.715,T*36$GPRMC,044403.60,A,2236.34595145,N,12017.80444109,E,0.015,228.478,240823,4.2936,W,D*1B$GPHDT,264.723,T*33$GPRMC,044403.80,A,2236.34595151,N,12017.80444108,E,0.006,0.000,240823,4.2936,W,D*10$GPHDT,264.721,T*31$GPRMC,044404.00,A,2236.34595158,N,12017.80444107,E,0.009,0.000,240823,4.2936,W,D*16$GPGGA,044404.00,2236.34595158,N,12017.80444107,E,2,07,1.2,6.332,M,20.367,M,5.0,0137*49$GPHDT,264.877,T*3D02002800000000000a1e0200000000003c0301010901000000280000010000410038006401640049012800640100005a0132010000000101e600000109000141013201000000014b013201000000014b013201000000015a0132010000000001a400000105000000d7030000d60b13020000000005000000853600004f074f0700000000000000000000000000000000000000001f0000003f0000007d000000fa00000077010000f4010000ee020000e8030000dc050000d0070000b80b0000a00f000070170000401f0000e02e0000803e0000c05d0000007d000080bb000000fa000005000000dd0300006309630901000000c8000000bc0200000807080701000000
$GPRMC,044404.20,A,2236.34595164,N,12017.80444105,E,0.015,287.228,240823,4.2936,W,D*11$GPHDT,264.829,T*36$GPRMC,044404.40,A,2236.34595170,N,12017.80444104,E,0.018,267.354,240823,4.2936,W,D*1A$GPHDT,264.763,T*37$GPRMC,044404.60,A,2236.34595177,N,12017.80444103,E,0.022,284.339,240823,4.2936,W,D*17$GPHDT,264.989,T*3D$GPRMC,044404.80,A,2236.34595183,N,12017.80444101,E,0.008,0.000,240823,4.2936,W,D*1F$GPHDT,265.016,T*33$GPRMC,044405.00,A,2236.34595189,N,12017.80444100,E,0.028,183.805,240823,4.2936,W,D*18$GPGGA,044405.00,2236.34595189,N,12017.80444100,E,2,07,1.2,6.334,M,20.367,M,6.0,0137*46$GPHDT,264.910,T*3D02002800000000000a1e0200000000003c0301010901000000280000010000410038006401640049012800640100005a0132010000000101e600000109000141013201000000014b013201000000014b013201000000015a0132010000000001a400000105000000d7030000d60b13020000000005000000853600004f074f0700000000000000000000000000000000000000001f0000003f0000007d000000fa00000077010000f4010000ee020000e8030000dc050000d0070000b80b0000a00f000070170000401f0000e02e0000803e0000c05d0000007d000080bb000000fa000005000000dd0300006309630901000000c8000000bc0200000807080701000000
$GPRMC,044405.20,A,2236.34595196,N,12017.80444099,E,0.011,207.244,240823,4.2936,W,D*1F$GPHDT,264.824,T*3B$GPRMC,044405.40,A,2236.34595202,N,12017.80444097,E,0.016,167.225,240823,4.2936,W,D*1C$GPHDT,265.093,T*3E$GPRMC,044405.60,A,2236.34595208,N,12017.80444096,E,0.007,0.000,240823,4.2936,W,D*10$GPHDT,265.043,T*33$GPRMC,044405.80,A,2236.34595214,N,12017.80444094,E,0.006,0.000,240823,4.2936,W,D*10$GPHDT,265.108,T*3D$GPRMC,044406.00,A,2236.34595221,N,12017.80444093,E,0.007,0.000,240823,4.2936,W,D*1B$GPGGA,044406.00,2236.34595221,N,12017.80444093,E,2,07,1.2,6.336,M,20.367,M,7.0,0137*4C$GPHDT,265.023,T*3502002800000000000a1e0200000000003c0301010901000000280000010000410038006401640049012800640100005a0132010000000101e600000109000141013201000000014b013201000000014b013201000000015a0132010000000001a400000105000000d7030000d60b13020000000005000000853600004f074f0700000000000000000000000000000000000000001f0000003f0000007d000000fa00000077010000f4010000ee020000e8030000dc050000d0070000b80b0000a00f000070170000401f0000e02e0000803e0000c05d0000007d000080bb000000fa000005000000dd0300006309630901000000c8000000bc0200000807080701000000
$GPRMC,044406.20,A,2236.34595227,N,12017.80444092,E,0.011,60.702,240823,4.2936,W,D*2A$GPHDT,264.975,T*3E$GPRMC,044406.40,A,2236.34595233,N,12017.80444091,E,0.007,0.000,240823,4.2936,W,D*1E$GPHDT,265.046,T*36$GPRMC,044406.60,A,2236.34595239,N,12017.80444090,E,0.010,147.648,240823,4.2936,W,D*19$GPHDT,264.947,T*3F$GPRMC,044406.80,A,2236.34595246,N,12017.80444089,E,0.016,10.940,240823,4.2936,W,D*25$GPHDT,265.069,T*3B$GPRMC,044407.00,A,2236.34595252,N,12017.80444088,E,0.004,0.000,240823,4.2936,W,D*17$GPGGA,044407.00,2236.34595252,N,12017.80444088,E,2,07,1.2,6.338,M,20.367,M,7.0,0137*4D$GPHDT,264.950,T*3902002800000000000a1e0200000000003c0301010901000000280000010000410038006401640049012800640100005a0132010000000101e600000109000141013201000000014b013201000000014b013201000000015a0132010000000001a400000105000000d7030000d60b13020000000005000000853600004f074f0700000000000000000000000000000000000000001f0000003f0000007d000000fa00000077010000f4010000ee020000e8030000dc050000d0070000b80b0000a00f000070170000401f0000e02e0000803e0000c05d0000007d000080bb000000fa000005000000dd0300006309630901000000c8000000bc0200000807080701000000
$GPRMC,044407.20,A,2236.34595259,N,12017.80444087,E,0.018,204.992,240823,4.2936,W,D*18$GPHDT,265.284,T*3A$GPRMC,044407.40,A,2236.34595265,N,12017.80444086,E,0.021,193.919,240823,4.2936,W,D*14$GPHDT,265.153,T*33$GPRMC,044407.60,A,2236.34595271,N,12017.80444085,E,0.063,209.548,240823,4.2936,W,D*1E$GPHDT,265.185,T*38$GPRMC,044407.80,A,2236.34595278,N,12017.80444084,E,0.023,214.749,240823,4.2936,W,D*13$GPHDT,265.474,T*33$GPRMC,044408.00,A,2236.34595285,N,12017.80444084,E,0.012,194.474,240823,4.2936,W,D*12$GPGGA,044408.00,2236.34595285,N,12017.80444084,E,2,07,1.2,6.341,M,20.367,M,7.0,0137*4A$GPHDT,265.425,T*3702002800000000000a1e0200000000003c0301010901000000280000010000410038006401640049012800640100005a0132010000000101e600000109000141013201000000014b013201000000014b013201000000015a0132010000000001a400000105000000d7030000d60b13020000000005000000853600004f074f0700000000000000000000000000000000000000001f0000003f0000007d000000fa00000077010000f4010000ee020000e8030000dc050000d0070000b80b0000a00f000070170000401f0000e02e0000803e0000c05d0000007d000080bb000000fa000005000000dd0300006309630901000000c8000000bc0200000807080701000000
$GPRMC,044408.20,A,2236.34595292,N,12017.80444084,E,0.010,197.695,240823,4.2936,W,D*1A$GPHDT,265.342,T*31$GPRMC,044408.40,A,2236.34595299,N,12017.80444084,E,0.018,157.268,240823,4.2936,W,D*15$GPHDT,265.293,T*3C$GPRMC,044408.60,A,2236.34595307,N,12017.80444084,E,0.009,0.000,240823,4.2936,W,D*1E$GPHDT,265.425,T*37$GPRMC,044408.80,A,2236.34595314,N,12017.80444084,E,0.012,85.610,240823,4.2936,W,D*22$GPHDT,265.272,T*33$GPRMC,044409.00,A,2236.34595321,N,12017.80444084,E,0.026,38.724,240823,4.2936,W,D*2A$GPGGA,044409.00,2236.34595321,N,12017.80444084,E,2,07,1.2,6.343,M,20.367,M,4.0,0137*45$GPHDT,265.132,T*3402002800000000000a1e0200000000003c0301010901000000280000010000410038006401640049012800640100005a0132010000000101e600000109000141013201000000014b013201000000014b013201000000015a0132010000000001a400000105000000d7030000d60b13020000000005000000853600004f074f0700000000000000000000000000000000000000001f0000003f0000007d000000fa00000077010000f4010000ee020000e8030000dc050000d0070000b80b0000a00f000070170000401f0000e02e0000803e0000c05d0000007d000080bb000000fa000005000000dd0300006309630901000000c8000000bc0200000807080701000000
$GPRMC,044409.20,A,2236.34595328,N,12017.80444084,E,0.021,3.068,240823,4.2936,W,D*11$GPHDT,265.372,T*32$GPRMC,044409.40,A,2236.34595335,N,12017.80444084,E,0.031,26.099,240823,4.2936,W,D*23$GPHDT,265.357,T*35$GPRMC,044409.60,A,2236.34595342,N,12017.80444084,E,0.031,1.557,240823,4.2936,W,D*13$GPHDT,265.547,T*32$GPRMC,044409.80,A,2236.34595349,N,12017.80444084,E,0.016,2.203,240823,4.2936,W,D*16$GPHDT,265.316,T*30$GPRMC,044410.00,A,2236.34595356,N,12017.80444084,E,0.011,333.188,240823,4.2936,W,D*1E$GPGGA,044410.00,2236.34595356,N,12017.80444084,E,2,07,1.2,6.345,M,20.367,M,5.0,0137*4A$GPHDT,265.548,T*3D$GPRMC,044410.20,A,2236.34595364,N,12017.80444084,E,0.016,317.411,240823,4.2936,W,D*19$GPHDT,265.444,T*30$GPRMC,044410.40,A,2236.34595371,N,12017.80444083,E,0.014,225.425,240823,4.2936,W,D*19$GPHDT,265.539,T*3B$GPRMC,044410.60,A,2236.34595378,N,12017.80444083,E,0.010,238.459,240823,4.2936,W,D*11$GPHDT,265.467,T*31$GPRMC,044410.80,A,2236.34595385,N,12017.80444082,E,0.014,179.295,240823,4.2936,W,D*18$GPHDT,265.494,T*3D$GPRMC,044411.00,A,2236.34595392,N,12017.80444082,E,0.013,160.441,240823,4.2936,W,D*17$GPGGA,044411.00,2236.34595392,N,12017.80444082,E,2,07,1.2,6.347,M,20.367,M,6.0,0137*44$GPHDT,265.643,T*35$GPRMC,044411.20,A,2236.34595399,N,12017.80444081,E,0.017,131.174,240823,4.2936,W,D*1E$GPHDT,265.494,T*3D$GPRMC,044411.40,A,2236.34595405,N,12017.80444081,E,0.023,156.472,240823,4.2936,W,D*1F$GPHDT,265.496,T*3F$GPRMC,044411.60,A,2236.34595412,N,12017.80444081,E,0.028,140.339,240823,4.2936,W,D*1F$GPHDT,265.343,T*30$GPRMC,044411.80,A,2236.34595419,N,12017.80444080,E,0.023,151.985,240823,4.2936,W,D*1D$GPHDT,265.565,T*32$GPRMC,044412.00,A,2236.34595425,N,12017.80444080,E,0.019,123.022,240823,4.2936,W,D*11$GPGGA,044412.00,2236.34595425,N,12017.80444080,E,2,07,1.2,6.349,M,20.367,M,7.0,0137*41$GPHDT,265.416,T*37$GPRMC,044412.20,A,2236.34595431,N,12017.80444080,E,0.014,133.457,240823,4.2936,W,D*1C$GPHDT,265.518,T*38$GPRMC,044412.40,A,2236.34595438,N,12017.80444081,E,0.015,153.975,240823,4.2936,W,D*18$GPHDT,265.669,T*3D$GPRMC,044412.60,A,2236.34595444,N,12017.80444081,E,0.003,0.000,240823,4.2936,W,D*1A$GPHDT,265.718,T*3A$GPRMC,044412.80,A,2236.34595450,N,12017.80444082,E,0.003,0.000,240823,4.2936,W,D*12$GPHDT,265.563,T*34$GPRMC,044413.00,A,2236.34595456,N,12017.80444082,E,0.025,337.041,240823,4.2936,W,D*1B$GPGGA,044413.00,2236.34595456,N,12017.80444082,E,2,07,1.2,6.351,M,20.367,M,7.0,0137*4F$GPHDT,265.673,T*36$GPRMC,044413.20,A,2236.34595463,N,12017.80444083,E,0.015,305.125,240823,4.2936,W,D*1F$GPHDT,265.954,T*3C$GPRMC,044413.40,A,2236.34595469,N,12017.80444083,E,0.020,350.400,240823,4.2936,W,D*17$GPHDT,265.996,T*32$GPRMC,044413.60,A,2236.34595476,N,12017.80444084,E,0.013,4.379,240823,4.2936,W,D*17$GPHDT,266.056,T*34$GPRMC,044413.80,A,2236.34595483,N,12017.80444085,E,0.009,0.000,240823,4.2936,W,D*10$GPHDT,266.057,T*35$GPRMC,044414.00,A,2236.34595490,N,12017.80444085,E,0.012,42.906,240823,4.2936,W,D*2E$GPGGA,044414.00,2236.34595490,N,12017.80444085,E,2,07,1.2,6.353,M,20.367,M,7.0,0137*47$GPHDT,266.131,T*34$GPRMC,044414.20,A,2236.34595497,N,12017.80444086,E,0.015,34.130,240823,4.2936,W,D*23$GPHDT,266.167,T*37$GPRMC,044414.40,A,2236.34595504,N,12017.80444087,E,0.020,43.411,240823,4.2936,W,D*2F$GPHDT,266.052,T*30$GPRMC,044414.60,A,2236.34595511,N,12017.80444089,E,0.010,0.000,240823,4.2936,W,D*17$GPHDT,266.171,T*30$GPRMC,044414.80,A,2236.34595519,N,12017.80444090,E,0.003,0.000,240823,4.2936,W,D*1B$GPHDT,266.359,T*38$GPRMC,044415.00,A,2236.34595526,N,12017.80444092,E,0.011,55.928,240823,4.2936,W,D*2C$GPGGA,044415.00,2236.34595526,N,12017.80444092,E,2,07,1.2,6.355,M,20.367,M,4.0,0137*49$GPHDT,266.463,T*36$GPRMC,044415.20,A,2236.34595534,N,12017.80444093,E,0.014,3.403,240823,4.2936,W,D*1E$GPHDT,266.551,T*36$GPRMC,044415.40,A,2236.34595541,N,12017.80444095,E,0.007,0.000,240823,4.2936,W,D*1A$GPHDT,266.445,T*32$GPRMC,044415.60,A,2236.34595549,N,12017.80444096,E,0.008,0.000,240823,4.2936,W,D*1C$GPHDT,266.530,T*31$GPRMC,044415.80,A,2236.34595556,N,12017.80444098,E,0.023,210.640,240823,4.2936,W,D*1A$GPHDT,266.570,T*35$GPRMC,044416.00,A,2236.34595564,N,12017.80444099,E,0.022,214.505,240823,4.2936,W,D*16$GPGGA,044416.00,2236.34595564,N,12017.80444099,E,2,07,1.2,6.357,M,20.367,M,5.0,0137*44$GPHDT,266.667,T*30$GPRMC,044416.20,A,2236.34595571,N,12017.80444101,E,0.020,169.929,240823,4.2936,W,D*19$GPHDT,266.540,T*36$GPRMC,044416.40,A,2236.34595578,N,12017.80444102,E,0.015,167.131,240823,4.2936,W,D*1C$GPHDT,266.753,T*36$GPRMC,044416.60,A,2236.34595585,N,12017.80444103,E,0.016,119.921,240823,4.2936,W,D*1E$GPHDT,266.860,T*39$GPRMC,044416.80,A,2236.34595592,N,12017.80444105,E,0.013,143.639,240823,4.2936,W,D*1C$GPHDT,266.965,T*3D$GPRMC,044417.00,A,2236.34595599,N,12017.80444106,E,0.005,0.000,240823,4.2936,W,D*10$GPGGA,044417.00,2236.34595599,N,12017.80444106,E,2,07,1.2,6.359,M,20.367,M,6.0,0137*4D$GPHDT,266.949,T*33$GPRMC,044417.20,A,2236.34595605,N,12017.80444108,E,0.010,104.057,240823,4.2936,W,D*19$GPHDT,267.242,T*32$GPRMC,044417.40,A,2236.34595612,N,12017.80444109,E,0.008,0.000,240823,4.2936,W,D*16$GPHDT,267.254,T*35$GPRMC,044417.60,A,2236.34595618,N,12017.80444111,E,0.002,0.000,240823,4.2936,W,D*1D$GPHDT,267.082,T*3C$GPRMC,044417.80,A,2236.34595625,N,12017.80444113,E,0.004,0.000,240823,4.2936,W,D*19$GPHDT,267.230,T*37$GPRMC,044418.00,A,2236.34595632,N,12017.80444114,E,0.021,162.993,240823,4.2936,W,D*1E$GPGGA,044418.00,2236.34595632,N,12017.80444114,E,2,07,1.2,6.361,M,20.367,M,7.0,0137*49$GPHDT,267.472,T*37$GPRMC,044418.20,A,2236.34595638,N,12017.80444116,E,0.010,199.657,240823,4.2936,W,D*15$GPHDT,267.404,T*36$GPRMC,044418.40,A,2236.34595644,N,12017.80444117,E,0.003,0.000,240823,4.2936,W,D*1E$GPHDT,267.462,T*36$GPRMC,044418.60,A,2236.34595651,N,12017.80444119,E,0.016,291.517,240823,4.2936,W,D*1B$GPHDT,267.518,T*3A$GPRMC,044418.80,A,2236.34595657,N,12017.80444120,E,0.010,0.000,240823,4.2936,W,D*16$GPHDT,267.515,T*37$GPRMC,044419.00,A,2236.34595664,N,12017.80444122,E,0.021,331.369,240823,4.2936,W,D*12$GPGGA,044419.00,2236.34595664,N,12017.80444122,E,2,07,1.2,6.364,M,20.367,M,7.0,0137*4B$GPHDT,267.477,T*32$GPRMC,044419.20,A,2236.34595671,N,12017.80444124,E,0.011,29.524,240823,4.2936,W,D*24$GPHDT,267.522,T*33$GPRMC,044419.40,A,2236.34595677,N,12017.80444125,E,0.014,61.627,240823,4.2936,W,D*2C$GPHDT,267.649,T*3D$GPRMC,044419.60,A,2236.34595684,N,12017.80444127,E,0.005,0.000,240823,4.2936,W,D*14$GPHDT,267.712,T*32$GPRMC,044419.80,A,2236.34595691,N,12017.80444129,E,0.020,131.156,240823,4.2936,W,D*16$GPHDT,267.388,T*35$GPRMC,044420.00,A,2236.34595697,N,12017.80444131,E,0.019,176.741,240823,4.2936,W,D*12$GPGGA,044420.00,2236.34595697,N,12017.80444131,E,2,07,1.2,6.366,M,20.367,M,7.0,0137*4D$GPHDT,267.550,T*36$GPRMC,044420.20,A,2236.34595704,N,12017.80444133,E,0.009,0.000,240823,4.2936,W,D*1A$GPHDT,267.356,T*36$GPRMC,044420.40,A,2236.34595711,N,12017.80444134,E,0.006,0.000,240823,4.2936,W,D*10$GPHDT,267.415,T*36$GPRMC,044420.60,A,2236.34595717,N,12017.80444136,E,0.024,231.542,240823,4.2936,W,D*15$GPHDT,267.473,T*36$GPRMC,044420.80,A,2236.34595724,N,12017.80444138,E,0.011,269.044,240823,4.2936,W,D*1D$GPHDT,267.236,T*31$GPRMC,044421.00,A,2236.34595730,N,12017.80444140,E,0.011,285.141,240823,4.2936,W,D*18$GPGGA,044421.00,2236.34595730,N,12017.80444140,E,2,07,1.2,6.368,M,20.367,M,4.0,0137*4B$GPHDT,267.401,T*33$GPRMC,044421.20,A,2236.34595737,N,12017.80444141,E,0.026,314.660,240823,4.2936,W,D*15$GPHDT,267.438,T*39$GPRMC,044421.40,A,2236.34595744,N,12017.80444143,E,0.019,329.481,240823,4.2936,W,D*1A$GPHDT,267.102,T*35$GPRMC,044421.60,A,2236.34595750,N,12017.80444144,E,0.030,351.801,240823,4.2936,W,D*1A$GPHDT,267.024,T*30$GPRMC,044421.80,A,2236.34595757,N,12017.80444145,E,0.017,332.451,240823,4.2936,W,D*1B$GPHDT,267.072,T*33$GPRMC,044422.00,A,2236.34595765,N,12017.80444146,E,0.014,348.782,240823,4.2936,W,D*11$GPGGA,044422.00,2236.34595765,N,12017.80444146,E,2,07,1.2,6.370,M,20.367,M,5.0,0137*46$GPHDT,267.176,T*36$GPRMC,044422.20,A,2236.34595772,N,12017.80444148,E,0.018,345.904,240823,4.2936,W,D*1A$GPHDT,267.136,T*32$GPRMC,044422.40,A,2236.34595779,N,12017.80444149,E,0.021,321.296,240823,4.2936,W,D*1E$GPHDT,267.049,T*3B$GPRMC,044422.60,A,2236.34595787,N,12017.80444150,E,0.009,0.000,240823,4.2936,W,D*12$GPHDT,267.129,T*3C$GPRMC,044422.80,A,2236.34595794,N,12017.80444151,E,0.015,305.721,240823,4.2936,W,D*10$GPHDT,267.149,T*3A$GPRMC,044423.00,A,2236.34595802,N,12017.80444152,E,0.006,0.000,240823,4.2936,W,D*1A$GPGGA,044423.00,2236.34595802,N,12017.80444152,E,2,07,1.2,6.372,M,20.367,M,6.0,0137*4D$GPHDT,266.836,T*3A$GPRMC,044423.20,A,2236.34595809,N,12017.80444153,E,0.009,0.000,240823,4.2936,W,D*1D$GPHDT,266.879,T*31$GPRMC,044423.40,A,2236.34595817,N,12017.80444154,E,0.010,184.962,240823,4.2936,W,D*1B$GPHDT,266.908,T*36$GPRMC,044423.60,A,2236.34595824,N,12017.80444155,E,0.023,185.816,240823,4.2936,W,D*1B$GPHDT,266.792,T*3B$GPRMC,044423.80,A,2236.34595832,N,12017.80444156,E,0.034,185.384,240823,4.2936,W,D*17$GPHDT,266.562,T*36$GPRMC,044424.00,A,2236.34595839,N,12017.80444157,E,0.031,229.395,240823,4.2936,W,D*12$GPGGA,044424.00,2236.34595839,N,12017.80444157,E,2,07,1.2,6.374,M,20.367,M,7.0,0137*40$GPHDT,266.794,T*3D$GPRMC,044424.20,A,2236.34595846,N,12017.80444158,E,0.014,220.699,240823,4.2936,W,D*10$GPHDT,266.725,T*37$GPRMC,044424.40,A,2236.34595853,N,12017.80444159,E,0.024,237.734,240823,4.2936,W,D*10$GPHDT,266.616,T*36$GPRMC,044424.60,A,2236.34595860,N,12017.80444160,E,0.025,268.036,240823,4.2936,W,D*16$GPHDT,266.521,T*31$GPRMC,044424.80,A,2236.34595867,N,12017.80444160,E,0.017,277.569,240823,4.2936,W,D*1F$GPHDT,266.436,T*36$GPRMC,044425.00,A,2236.34595874,N,12017.80444161,E,0.020,310.592,240823,4.2936,W,D*15$GPGGA,044425.00,2236.34595874,N,12017.80444161,E,2,07,1.2,6.376,M,20.367,M,7.0,0137*4F$GPHDT,266.542,T*34$GPRMC,044425.20,A,2236.34595882,N,12017.80444161,E,0.014,304.980,240823,4.2936,W,D*13$GPHDT,266.515,T*36$GPRMC,044425.40,A,2236.34595889,N,12017.80444161,E,0.005,0.000,240823,4.2936,W,D*18$GPHDT,266.627,T*34$GPRMC,044425.60,A,2236.34595896,N,12017.80444162,E,0.024,21.731,240823,4.2936,W,D*22$GPHDT,266.330,T*37$GPRMC,044425.80,A,2236.34595904,N,12017.80444162,E,0.019,53.631,240823,4.2936,W,D*2C$GPHDT,266.303,T*37$GPRMC,044426.00,A,2236.34595911,N,12017.80444163,E,0.007,0.000,240823,4.2936,W,D*1F$GPGGA,044426.00,2236.34595911,N,12017.80444163,E,2,07,1.2,6.378,M,20.367,M,7.0,0137*42$GPHDT,266.365,T*37$GPRMC,044426.20,A,2236.34595919,N,12017.80444163,E,0.012,7.621,240823,4.2936,W,D*13$GPHDT,266.049,T*3A$GPRMC,044426.40,A,2236.34595927,N,12017.80444164,E,0.012,328.319,240823,4.2936,W,D*1F$GPHDT,265.998,T*3C$GPRMC,044426.60,A,2236.34595934,N,12017.80444164,E,0.009,0.000,240823,4.2936,W,D*17$GPHDT,266.246,T*37$GPRMC,044426.80,A,2236.34595942,N,12017.80444165,E,0.022,254.272,240823,4.2936,W,D*14$GPHDT,266.072,T*32$GPRMC,044427.00,A,2236.34595949,N,12017.80444165,E,0.018,224.908,240823,4.2936,W,D*1E$GPGGA,044427.00,2236.34595949,N,12017.80444165,E,2,07,1.2,6.380,M,20.367,M,4.0,0137*4C$GPHDT,265.945,T*3C$GPRMC,044427.20,A,2236.34595957,N,12017.80444165,E,0.039,215.726,240823,4.2936,W,D*10$GPHDT,266.212,T*36$GPRMC,044427.40,A,2236.34595964,N,12017.80444165,E,0.022,231.968,240823,4.2936,W,D*1E$GPHDT,266.126,T*32$GPRMC,044427.60,A,2236.34595971,N,12017.80444165,E,0.032,213.291,240823,4.2936,W,D*14$GPHDT,266.213,T*37$GPRMC,044427.80,A,2236.34595978,N,12017.80444165,E,0.006,0.000,240823,4.2936,W,D*1E$GPHDT,265.815,T*38$GPRMC,044428.00,A,2236.34595985,N,12017.80444165,E,0.010,0.000,240823,4.2936,W,D*1C$GPGGA,044428.00,2236.34595985,N,12017.80444165,E,2,07,1.2,6.382,M,20.367,M,5.0,0137*40$GPHDT,266.018,T*3E$GPRMC,044428.20,A,2236.34595993,N,12017.80444165,E,0.013,336.399,240823,4.2936,W,D*1F$GPHDT,265.973,T*39$GPRMC,044428.40,A,2236.34596000,N,12017.80444165,E,0.019,2.953,240823,4.2936,W,D*1B$GPHDT,265.590,T*38$GPRMC,044428.60,A,2236.34596007,N,12017.80444165,E,0.004,0.000,240823,4.2936,W,D*1F$GPHDT,265.634,T*35$GPRMC,044428.80,A,2236.34596015,N,12017.80444165,E,0.016,25.289,240823,4.2936,W,D*25$GPHDT,265.637,T*36$GPRMC,044429.00,A,2236.34596022,N,12017.80444165,E,0.023,5.399,240823,4.2936,W,D*1C$GPGGA,044429.00,2236.34596022,N,12017.80444165,E,2,07,1.2,6.384,M,20.367,M,6.0,0137*43$GPHDT,265.481,T*39$GPRMC,044429.20,A,2236.34596030,N,12017.80444165,E,0.009,0.000,240823,4.2936,W,D*13$GPHDT,265.263,T*33$GPRMC,044429.40,A,2236.34596037,N,12017.80444165,E,0.013,334.140,240823,4.2936,W,D*18$GPHDT,265.443,T*37$GPRMC,044429.60,A,2236.34596045,N,12017.80444165,E,0.006,0.000,240823,4.2936,W,D*1A$GPHDT,265.275,T*34$GPRMC,044429.80,A,2236.34596053,N,12017.80444165,E,0.012,239.146,240823,4.2936,W,D*1D$GPHDT,265.397,T*39$GPRMC,044430.00,A,2236.34596061,N,12017.80444165,E,0.005,0.000,240823,4.2936,W,D*11$GPGGA,044430.00,2236.34596061,N,12017.80444165,E,2,07,1.2,6.386,M,20.367,M,7.0,0137*4F$GPHDT,265.066,T*34$GPRMC,044430.20,A,2236.34596069,N,12017.80444165,E,0.016,213.212,240823,4.2936,W,D*18$GPHDT,265.165,T*36$GPRMC,044430.40,A,2236.34596076,N,12017.80444165,E,0.004,0.000,240823,4.2936,W,D*12$GPHDT,265.153,T*33$GPRMC,044430.60,A,2236.34596084,N,12017.80444165,E,0.008,0.000,240823,4.2936,W,D*11$GPHDT,265.066,T*34$GPRMC,044430.80,A,2236.34596091,N,12017.80444165,E,0.010,106.471,240823,4.2936,W,D*17$GPHDT,265.020,T*36$GPRMC,044431.00,A,2236.34596099,N,12017.80444165,E,0.014,131.922,240823,4.2936,W,D*1D$GPGGA,044431.00,2236.34596099,N,12017.80444165,E,2,07,1.2,6.388,M,20.367,M,7.0,0137*47$GPHDT,264.814,T*38$GPRMC,044431.20,A,2236.34596106,N,12017.80444165,E,0.018,185.023,240823,4.2936,W,D*13$GPHDT,264.862,T*39$GPRMC,044431.40,A,2236.34596113,N,12017.80444165,E,0.035,181.812,240823,4.2936,W,D*10$GPHDT,264.696,T*3C$GPRMC,044431.60,A,2236.34596120,N,12017.80444166,E,0.041,213.327,240823,4.2936,W,D*17$GPHDT,264.700,T*32$GPRMC,044431.80,A,2236.34596127,N,12017.80444166,E,0.037,209.531,240823,4.2936,W,D*15$GPHDT,264.717,T*34$GPRMC,044432.00,A,2236.34596134,N,12017.80444166,E,0.024,205.035,240823,4.2936,W,D*13$GPGGA,044432.00,2236.34596134,N,12017.80444166,E,2,07,1.2,6.390,M,20.367,M,7.0,0137*48$GPHDT,264.768,T*3C$GPRMC,044432.20,A,2236.34596141,N,12017.80444166,E,0.007,0.000,240823,4.2936,W,D*13$GPHDT,264.498,T*30$GPRMC,044432.40,A,2236.34596148,N,12017.80444166,E,0.007,0.000,240823,4.2936,W,D*1C$GPHDT,264.509,T*39$GPRMC,044432.60,A,2236.34596155,N,12017.80444166,E,0.006,0.000,240823,4.2936,W,D*13$GPHDT,264.607,T*34$GPRMC,044432.80,A,2236.34596162,N,12017.80444167,E,0.019,22.024,240823,4.2936,W,D*20$GPHDT,264.438,T*3A$GPRMC,044433.00,A,2236.34596169,N,12017.80444167,E,0.013,41.693,240823,4.2936,W,D*27$GPGGA,044433.00,2236.34596169,N,12017.80444167,E,2,07,1.2,6.392,M,20.367,M,4.0,0137*41$GPHDT,264.409,T*38$GPRMC,044433.20,A,2236.34596176,N,12017.80444167,E,0.010,314.682,240823,4.2936,W,D*1B$GPHDT,264.429,T*3A$GPRMC,044433.40,A,2236.34596184,N,12017.80444168,E,0.013,237.767,240823,4.2936,W,D*16$GPHDT,264.582,T*3A$GPRMC,044433.60,A,2236.34596191,N,12017.80444168,E,0.023,266.393,240823,4.2936,W,D*18$GPHDT,264.370,T*31$GPRMC,044433.80,A,2236.34596198,N,12017.80444168,E,0.013,285.324,240823,4.2936,W,D*1D$GPHDT,264.346,T*34$GPRMC,044434.00,A,2236.34596206,N,12017.80444168,E,0.027,269.009,240823,4.2936,W,D*1F$GPGGA,044434.00,2236.34596206,N,12017.80444168,E,2,07,1.2,6.394,M,20.367,M,5.0,0137*44$GPHDT,264.453,T*37$GPRMC,044434.20,A,2236.34596213,N,12017.80444168,E,0.018,255.173,240823,4.2936,W,D*16$GPHDT,264.254,T*36$GPRMC,044434.40,A,2236.34596220,N,12017.80444168,E,0.022,284.581,240823,4.2936,W,D*1C$GPHDT,264.447,T*32$GPRMC,044434.60,A,2236.34596228,N,12017.80444167,E,0.016,221.855,240823,4.2936,W,D*15$GPHDT,264.184,T*38$GPRMC,044434.80,A,2236.34596235,N,12017.80444166,E,0.023,205.421,240823,4.2936,W,D*19$GPHDT,264.268,T*39$GPRMC,044435.00,A,2236.34596242,N,12017.80444166,E,0.035,192.188,240823,4.2936,W,D*1C$GPGGA,044435.00,2236.34596242,N,12017.80444166,E,2,07,1.2,6.396,M,20.367,M,6.0,0137*4A$GPHDT,264.188,T*34$GPRMC,044435.20,A,2236.34596249,N,12017.80444165,E,0.030,189.667,240823,4.2936,W,D*1F$GPHDT,264.359,T*3A$GPRMC,044435.40,A,2236.34596256,N,12017.80444164,E,0.024,178.211,240823,4.2936,W,D*18$GPHDT,264.138,T*3F$GPRMC,044435.60,A,2236.34596263,N,12017.80444164,E,0.027,203.772,240823,4.2936,W,D*10$GPHDT,264.358,T*3B$GPRMC,044435.80,A,2236.34596269,N,12017.80444163,E,0.021,203.700,240823,4.2936,W,D*10$GPHDT,264.355,T*36$GPRMC,044436.00,A,2236.34596276,N,12017.80444162,E,0.012,235.007,240823,4.2936,W,D*11$GPGGA,044436.00,2236.34596276,N,12017.80444162,E,2,07,1.2,6.398,M,20.367,M,7.0,0137*45$GPHDT,264.460,T*37$GPRMC,044436.20,A,2236.34596282,N,12017.80444161,E,0.014,181.399,240823,4.2936,W,D*15$GPHDT,264.333,T*36$GPRMC,044436.40,A,2236.34596289,N,12017.80444160,E,0.014,269.676,240823,4.2936,W,D*18$GPHDT,264.449,T*3C$GPRMC,044436.60,A,2236.34596295,N,12017.80444159,E,0.018,320.219,240823,4.2936,W,D*10$GPHDT,264.675,T*31$GPRMC,044436.80,A,2236.34596302,N,12017.80444158,E,0.039,336.950,240823,4.2936,W,D*12$GPHDT,264.428,T*3B$GPRMC,044437.00,A,2236.34596309,N,12017.80444157,E,0.047,345.249,240823,4.2936,W,D*11$GPGGA,044437.00,2236.34596309,N,12017.80444157,E,2,07,1.2,6.400,M,20.367,M,7.0,0137*4D$GPHDT,264.460,T*37$GPRMC,044437.20,A,2236.34596316,N,12017.80444155,E,0.045,330.833,240823,4.2936,W,D*18$GPHDT,264.612,T*30$GPRMC,044437.40,A,2236.34596324,N,12017.80444154,E,0.027,342.680,240823,4.2936,W,D*19$GPHDT,264.518,T*39$GPRMC,044437.60,A,2236.34596332,N,12017.80444152,E,0.033,339.256,240823,4.2936,W,D*1C$GPHDT,264.518,T*39$GPRMC,044437.80,A,2236.34596339,N,12017.80444150,E,0.016,11.286,240823,4.2936,W,D*28$GPHDT,264.330,T*35$GPRMC,044438.00,A,2236.34596347,N,12017.80444149,E,0.007,0.000,240823,4.2936,W,D*12$GPGGA,044438.00,2236.34596347,N,12017.80444149,E,2,07,1.2,6.402,M,20.367,M,7.0,0137*45$GPHDT,264.542,T*36$GPRMC,044438.20,A,2236.34596355,N,12017.80444147,E,0.011,175.519,240823,4.2936,W,D*14$GPHDT,264.392,T*3D02002800000000000a1e0200000000003c0301010901000000280000010000410038006401640049012800640100005a0132010000000101e600000109000141013201000000014b013201000000014b013201000000015a0132010000000001a400000105000000d7030000d60b13020000000005000000853600004f074f0700000000000000000000000000000000000000001f0000003f0000007d000000fa00000077010000f4010000ee020000e8030000dc050000d0070000b80b0000a00f000070170000401f0000e02e0000803e0000c05d0000007d000080bb000000fa000005000000dd0300006309630901000000c8000000bc0200000807080701000000
$GPRMC,044438.40,A,2236.34596363,N,12017.80444146,E,0.028,199.706,240823,4.2936,W,D*12$GPHDT,264.485,T*3C$GPRMC,044438.60,A,2236.34596371,N,12017.80444145,E,0.030,193.486,240823,4.2936,W,D*18$GPHDT,264.360,T*30$GPRMC,044438.80,A,2236.34596378,N,12017.80444143,E,0.039,170.181,240823,4.2936,W,D*1F$GPHDT,264.526,T*34$GPRMC,044439.00,A,2236.34596386,N,12017.80444142,E,0.038,165.735,240823,4.2936,W,D*1A$GPGGA,044439.00,2236.34596386,N,12017.80444142,E,2,07,1.2,6.404,M,20.367,M,4.0,0137*47$GPHDT,264.641,T*3602002800000000000a1e0200000000003c0301010901000000280000010000410038006401640049012800640100005a0132010000000101e600000109000141013201000000014b013201000000014b013201000000015a0132010000000001a400000105000000d7030000d60b13020000000005000000853600004f074f0700000000000000000000000000000000000000001f0000003f0000007d000000fa00000077010000f4010000ee020000e8030000dc050000d0070000b80b0000a00f000070170000401f0000e02e0000803e0000c05d0000007d000080bb000000fa000005000000dd0300006309630901000000c8000000bc0200000807080701000000
$GPRMC,044439.20,A,2236.34596393,N,12017.80444140,E,0.025,139.434,240823,4.2936,W,D*19$GPHDT,264.596,T*3F$GPRMC,044439.40,A,2236.34596400,N,12017.80444139,E,0.026,130.081,240823,4.2936,W,D*1C$GPHDT,264.489,T*30$GPRMC,044439.60,A,2236.34596407,N,12017.80444138,E,0.009,0.000,240823,4.2936,W,D*1E$GPHDT,264.597,T*3E$GPRMC,044439.80,A,2236.34596415,N,12017.80444137,E,0.021,13.747,240823,4.2936,W,D*20$GPHDT,264.565,T*33$GPRMC,044440.00,A,2236.34596422,N,12017.80444137,E,0.014,331.809,240823,4.2936,W,D*12$GPGGA,044440.00,2236.34596422,N,12017.80444137,E,2,07,1.2,6.406,M,20.367,M,5.0,0137*41$GPHDT,264.444,T*3102002800000000000a1e0200000000003c0301010901000000280000010000410038006401640049012800640100005a0132010000000101e600000109000141013201000000014b013201000000014b013201000000015a0132010000000001a400000105000000d7030000d60b13020000000005000000853600004f074f0700000000000000000000000000000000000000001f0000003f0000007d000000fa00000077010000f4010000ee020000e8030000dc050000d0070000b80b0000a00f000070170000401f0000e02e0000803e0000c05d0000007d000080bb000000fa000005000000dd0300006309630901000000c8000000bc0200000807080701000000
$GPRMC,044440.20,A,2236.34596429,N,12017.80444136,E,0.031,353.262,240823,4.2936,W,D*1E$GPHDT,264.474,T*32$GPRMC,044440.40,A,2236.34596437,N,12017.80444135,E,0.044,327.549,240823,4.2936,W,D*1B$GPHDT,264.255,T*37$GPRMC,044440.60,A,2236.34596445,N,12017.80444133,E,0.028,310.969,240823,4.2936,W,D*1A$GPHDT,264.424,T*37$GPRMC,044440.80,A,2236.34596453,N,12017.80444132,E,0.039,329.641,240823,4.2936,W,D*1D$GPHDT,264.276,T*36$GPRMC,044441.00,A,2236.34596461,N,12017.80444131,E,0.038,354.099,240823,4.2936,W,D*1E$GPGGA,044441.00,2236.34596461,N,12017.80444131,E,2,07,1.2,6.407,M,20.367,M,6.0,0137*43$GPHDT,264.353,T*3002002800000000000a1e0200000000003c0301010901000000280000010000410038006401640049012800640100005a0132010000000101e600000109000141013201000000014b013201000000014b013201000000015a0132010000000001a400000105000000d7030000d60b13020000000005000000853600004f074f0700000000000000000000000000000000000000001f0000003f0000007d000000fa00000077010000f4010000ee020000e8030000dc050000d0070000b80b0000a00f000070170000401f0000e02e0000803e0000c05d0000007d000080bb000000fa000005000000dd0300006309630901000000c8000000bc0200000807080701000000
$GPRMC,044441.20,A,2236.34596470,N,12017.80444129,E,0.020,0.650,240823,4.2936,W,D*1D$GPHDT,264.519,T*38$GPRMC,044441.40,A,2236.34596478,N,12017.80444128,E,0.033,23.408,240823,4.2936,W,D*2E$GPHDT,264.392,T*3D$GPRMC,044441.60,A,2236.34596487,N,12017.80444126,E,0.023,45.813,240823,4.2936,W,D*25$GPHDT,264.400,T*31$GPRMC,044441.80,A,2236.34596495,N,12017.80444125,E,0.023,74.118,240823,4.2936,W,D*2B$GPHDT,264.277,T*37$GPRMC,044442.00,A,2236.34596504,N,12017.80444124,E,0.025,119.471,240823,4.2936,W,D*1E$GPGGA,044442.00,2236.34596504,N,12017.80444124,E,2,07,1.2,6.409,M,20.367,M,7.0,0137*49$GPHDT,264.408,T*3902002800000000000a1e0200000000003c0301010901000000280000010000410038006401640049012800640100005a0132010000000101e600000109000141013201000000014b013201000000014b013201000000015a0132010000000001a400000105000000d7030000d60b13020000000005000000853600004f074f0700000000000000000000000000000000000000001f0000003f0000007d000000fa00000077010000f4010000ee020000e8030000dc050000d0070000b80b0000a00f000070170000401f0000e02e0000803e0000c05d0000007d000080bb000000fa000005000000dd0300006309630901000000c8000000bc0200000807080701000000
$GPRMC,044442.20,A,2236.34596513,N,12017.80444123,E,0.024,117.470,240823,4.2936,W,D*13$GPHDT,264.534,T*37$GPRMC,044442.40,A,2236.34596521,N,12017.80444123,E,0.029,165.687,240823,4.2936,W,D*16$GPHDT,264.447,T*32$GPRMC,044442.60,A,2236.34596529,N,12017.80444122,E,0.040,190.988,240823,4.2936,W,D*18$GPHDT,264.463,T*34$GPRMC,044442.80,A,2236.34596537,N,12017.80444121,E,0.040,205.030,240823,4.2936,W,D*1F$GPHDT,264.534,T*37$GPRMC,044443.00,A,2236.34596545,N,12017.80444120,E,0.035,211.930,240823,4.2936,W,D*1C$GPGGA,044443.00,2236.34596545,N,12017.80444120,E,2,07,1.2,6.411,M,20.367,M,7.0,0137*40$GPHDT,264.667,T*3202002800000000000a1e0200000000003c0301010901000000280000010000410038006401640049012800640100005a0132010000000101e600000109000141013201000000014b013201000000014b013201000000015a0132010000000001a400000105000000d7030000d60b13020000000005000000853600004f074f0700000000000000000000000000000000000000001f0000003f0000007d000000fa00000077010000f4010000ee020000e8030000dc050000d0070000b80b0000a00f000070170000401f0000e02e0000803e0000c05d0000007d000080bb000000fa000005000000dd0300006309630901000000c8000000bc0200000807080701000000
$GPRMC,044443.20,A,2236.34596552,N,12017.80444119,E,0.028,219.027,240823,4.2936,W,D*19$GPHDT,264.333,T*36$GPRMC,044443.40,A,2236.34596559,N,12017.80444118,E,0.024,223.556,240823,4.2936,W,D*13$GPHDT,264.569,T*3F$GPRMC,044443.60,A,2236.34596567,N,12017.80444117,E,0.018,330.412,240823,4.2936,W,D*1E$GPHDT,264.411,T*31$GPRMC,044443.80,A,2236.34596574,N,12017.80444115,E,0.021,21.619,240823,4.2936,W,D*20$GPHDT,264.473,T*35$GPRMC,044444.00,A,2236.34596581,N,12017.80444114,E,0.036,359.122,240823,4.2936,W,D*11$GPGGA,044444.00,2236.34596581,N,12017.80444114,E,2,07,1.2,6.413,M,20.367,M,7.0,0137*4A$GPHDT,264.390,T*3F02002800000000000a1e0200000000003c0301010901000000280000010000410038006401640049012800640100005a0132010000000101e600000109000141013201000000014b013201000000014b013201000000015a0132010000000001a400000105000000d7030000d60b13020000000005000000853600004f074f0700000000000000000000000000000000000000001f0000003f0000007d000000fa00000077010000f4010000ee020000e8030000dc050000d0070000b80b0000a00f000070170000401f0000e02e0000803e0000c05d0000007d000080bb000000fa000005000000dd0300006309630901000000c8000000bc0200000807080701000000
